[
    {
        "name": "100 Thieves",
        "location": "United States",
        "logo": "https://liquipedia.net/commons/images/thumb/4/49/100_Thieves_full_lightmode.png/600px-100_Thieves_full_lightmode.png",
        "region": "North America"
    },
    {
        "name": "Akrew",
        "location": "United States",
        "logo": "https://liquipedia.net/commons/images/6/63/Akrew_allmode.png",
        "region": "North America"
    },
    {
        "name": "Built By Gamers",
        "location": "United States",
        "logo": "https://liquipedia.net/commons/images/6/6f/Built_By_Gamers_2021_allmode.png",
        "region": "North America"
    },
    {
        "name": "Cloud9",
        "location": "United States",
        "logo": "https://liquipedia.net/commons/images/thumb/0/01/Cloud9_full_lightmode.png/600px-Cloud9_full_lightmode.png",
        "region": "North America"
    },
    {
        "name": "Cloud9 White",
        "location": "United States",
        "logo": "https://liquipedia.net/commons/images/thumb/0/01/Cloud9_full_lightmode.png/600px-Cloud9_full_lightmode.png",
        "region": "North America"
    },
    {
        "name": "Complexity Gaming",
        "location": "United States",
        "logo": "https://liquipedia.net/commons/images/thumb/2/21/Complexity_Gaming_2019_lightmode_full.png/600px-Complexity_Gaming_2019_lightmode_full.png",
        "region": "North America"
    },
    {
        "name": "Complexity GX3",
        "location": "United States",
        "logo": "https://liquipedia.net/commons/images/thumb/2/21/Complexity_Gaming_2019_lightmode_full.png/600px-Complexity_Gaming_2019_lightmode_full.png",
        "region": "North America"
    },
    {
        "name": "Counter Logic Gaming Red",
        "location": "United States",
        "logo": "https://liquipedia.net/commons/images/thumb/8/89/Counter_Logic_Gaming_Red_allmode.png/600px-Counter_Logic_Gaming_Red_allmode.png",
        "region": "North America"
    },
    {
        "name": "DarkZero Esports",
        "location": "United States",
        "logo": "https://liquipedia.net/commons/images/thumb/b/bf/DarkZero_Esports_lightmode_full.png/600px-DarkZero_Esports_lightmode_full.png",
        "region": "North America"
    },
    {
        "name": "Dignitas Female",
        "location": "United States",
        "logo": "https://liquipedia.net/commons/images/thumb/5/56/Dignitas_2021_allmode.png/600px-Dignitas_2021_allmode.png",
        "region": "North America"
    },
    {
        "name": "Elysium",
        "location": "United States",
        "logo": "https://liquipedia.net/commons/images/c/c6/TeamElysium.png",
        "region": "North America"
    }
]